[
    {
      "iata": "LHR",
      "icao": "EGLL",
      "name": "London Heathrow Airport",
      "city": "London",
      "country": "United Kingdom",
      "latitude": 51.4706,
      "longitude": -0.4619
    },
    {
      "iata": "CDG",
      "icao": "LFPG",
      "name": "Charles de Gaulle Airport",
      "city": "Paris",
      "country": "France",
      "latitude": 49.0097,
      "longitude": 2.5479
    },
    {
      "iata": "AMS",
      "icao": "EHAM",
      "name": "Amsterdam Schiphol Airport",
      "city": "Amsterdam",
      "country": "Netherlands",
      "latitude": 52.3105,
      "longitude": 4.7683
    },
    {
      "iata": "FRA",
      "icao": "EDDF",
      "name": "Frankfurt am Main Airport",
      "city": "Frankfurt",
      "country": "Germany",
      "latitude": 50.0379,
      "longitude": 8.5622
    },
    {
      "iata": "IST",
      "icao": "LTFM",
      "name": "Istanbul Airport",
      "city": "Istanbul",
      "country": "Turkey",
      "latitude": 41.2753,
      "longitude": 28.7519
    },
    {
      "iata": "MAD",
      "icao": "LEMD",
      "name": "Adolfo Suárez Madrid–Barajas Airport",
      "city": "Madrid",
      "country": "Spain",
      "latitude": 40.4983,
      "longitude": -3.5676
    },
    {
      "iata": "BCN",
      "icao": "LEBL",
      "name": "Barcelona–El Prat Airport",
      "city": "Barcelona",
      "country": "Spain",
      "latitude": 41.2974,
      "longitude": 2.0833
    },
    {
      "iata": "MUC",
      "icao": "EDDM",
      "name": "Munich Airport",
      "city": "Munich",
      "country": "Germany",
      "latitude": 48.3538,
      "longitude": 11.7861
    },
    {
      "iata": "FCO",
      "icao": "LIRF",
      "name": "Rome Fiumicino Airport",
      "city": "Rome",
      "country": "Italy",
      "latitude": 41.8003,
      "longitude": 12.2389
    },
    {
      "iata": "CPH",
      "icao": "EKCH",
      "name": "Copenhagen Airport",
      "city": "Copenhagen",
      "country": "Denmark",
      "latitude": 55.6181,
      "longitude": 12.6561
    },
    {
      "iata": "ARN",
      "icao": "ESSA",
      "name": "Stockholm Arlanda Airport",
      "city": "Stockholm",
      "country": "Sweden",
      "latitude": 59.6519,
      "longitude": 17.9186
    },
    {
      "iata": "BRU",
      "icao": "EBBR",
      "name": "Brussels Airport",
      "city": "Brussels",
      "country": "Belgium",
      "latitude": 50.9014,
      "longitude": 4.4844
    },
    {
      "iata": "ZRH",
      "icao": "LSZH",
      "name": "Zurich Airport",
      "city": "Zurich",
      "country": "Switzerland",
      "latitude": 47.4647,
      "longitude": 8.5492
    },
    {
      "iata": "VIE",
      "icao": "LOWW",
      "name": "Vienna International Airport",
      "city": "Vienna",
      "country": "Austria",
      "latitude": 48.1103,
      "longitude": 16.5697
    },
    {
      "iata": "OSL",
      "icao": "ENGM",
      "name": "Oslo Gardermoen Airport",
      "city": "Oslo",
      "country": "Norway",
      "latitude": 60.1939,
      "longitude": 11.1004
    },
    {
      "iata": "LGW",
      "icao": "EGKK",
      "name": "London Gatwick Airport",
      "city": "London",
      "country": "United Kingdom",
      "latitude": 51.1481,
      "longitude": -0.1903
    },
    {
      "iata": "LTN",
      "icao": "EGGW",
      "name": "London Luton Airport",
      "city": "Luton",
      "country": "United Kingdom",
      "latitude": 51.8747,
      "longitude": -0.3683
    },
    {
      "iata": "STN",
      "icao": "EGSS",
      "name": "London Stansted Airport",
      "city": "London",
      "country": "United Kingdom",
      "latitude": 51.885,
      "longitude": 0.235
    },
    {
      "iata": "DUB",
      "icao": "EIDW",
      "name": "Dublin Airport",
      "city": "Dublin",
      "country": "Ireland",
      "latitude": 53.4273,
      "longitude": -6.2436
    },
    {
      "iata": "WAW",
      "icao": "EPWA",
      "name": "Warsaw Chopin Airport",
      "city": "Warsaw",
      "country": "Poland",
      "latitude": 52.1657,
      "longitude": 20.9671
    },
    {
      "iata": "BUD",
      "icao": "LHBP",
      "name": "Budapest Ferenc Liszt International Airport",
      "city": "Budapest",
      "country": "Hungary",
      "latitude": 47.4369,
      "longitude": 19.2556
    },
    {
      "iata": "PRG",
      "icao": "LKPR",
      "name": "Václav Havel Airport Prague",
      "city": "Prague",
      "country": "Czech Republic",
      "latitude": 50.1008,
      "longitude": 14.26
    },
    {
      "iata": "ATH",
      "icao": "LGAV",
      "name": "Athens International Airport",
      "city": "Athens",
      "country": "Greece",
      "latitude": 37.9364,
      "longitude": 23.9445
    },
    {
      "iata": "HEL",
      "icao": "EFHK",
      "name": "Helsinki-Vantaa Airport",
      "city": "Helsinki",
      "country": "Finland",
      "latitude": 60.3172,
      "longitude": 24.9633
    },
    {
      "iata": "MAN",
      "icao": "EGCC",
      "name": "Manchester Airport",
      "city": "Manchester",
      "country": "United Kingdom",
      "latitude": 53.3659,
      "longitude": -2.272
    },
    {
      "iata": "TXL",
      "icao": "EDDT",
      "name": "Berlin Tegel Airport (closed, replaced by BER)",
      "city": "Berlin",
      "country": "Germany",
      "latitude": 52.5597,
      "longitude": 13.2877
    },
    {
      "iata": "BER",
      "icao": "EDDB",
      "name": "Berlin Brandenburg Airport",
      "city": "Berlin",
      "country": "Germany",
      "latitude": 52.3667,
      "longitude": 13.5033
    },
    {
      "iata": "LIS",
      "icao": "LPPT",
      "name": "Humberto Delgado Airport",
      "city": "Lisbon",
      "country": "Portugal",
      "latitude": 38.7742,
      "longitude": -9.1342
    },
    {
      "iata": "OPO",
      "icao": "LPPR",
      "name": "Porto Airport",
      "city": "Porto",
      "country": "Portugal",
      "latitude": 41.2421,
      "longitude": -8.6781
    },
    {
      "iata": "MLA",
      "icao": "LMML",
      "name": "Malta International Airport",
      "city": "Luqa",
      "country": "Malta",
      "latitude": 35.8575,
      "longitude": 14.4775
    },
    {
      "iata": "KRK",
      "icao": "EPKK",
      "name": "John Paul II Kraków-Balice International Airport",
      "city": "Kraków",
      "country": "Poland",
      "latitude": 50.0777,
      "longitude": 19.7848
    },
    {
      "iata": "BTS",
      "icao": "LZIB",
      "name": "Bratislava Airport",
      "city": "Bratislava",
      "country": "Slovakia",
      "latitude": 48.1702,
      "longitude": 17.2127
    },
    {
      "iata": "LUX",
      "icao": "ELLX",
      "name": "Luxembourg Airport",
      "city": "Luxembourg",
      "country": "Luxembourg",
      "latitude": 49.6233,
      "longitude": 6.2044
    }
  ]
  